orgId,postalCodePrefix,country,state,city,latitude,longitude,timeZone
BAY,A0A,CA,NL,Witless Bay,47.545965,-53.138234,America/St_Johns
BAY,A0B,CA,NL,Brigus Junction,47.41876,-53.844888,America/St_Johns
BAY,A0C,CA,NL,Little Catalina,49.8279955,-54.4173245,America/St_Johns
BAY,A0E,CA,NL,Baine Harbour,47.45083,-54.73319,America/St_Johns
BAY,A0G,CA,NL,Baytona,49.1776,-54.442205,America/St_Johns
BAY,A0H,CA,NL,Badger,48.4864765,-54.7871645,America/St_Johns
BAY,A0J,CA,NL,Kings Point,49.355415,-55.5265845,America/St_Johns
BAY,A0K,CA,NL,Baie Verte,50.6864055,-56.432805,America/St_Johns